 {"estaciones":{"estacion":[{"id" : 1,"titulo" : "Constitución","direccion" : "Avda. Constitución","poblacion" : "Gijón","provincia" : "Asturias","latitud" : 43.529806,"longitud" : -5.673428},{"id" : 2,"titulo" : "Argentina","direccion" : "Avda. Argentina","poblacion" : "Gijón","provincia" : "Asturias","latitud" : 43.538869,"longitud" : -5.69893},{"id" : 3,"titulo" : "H. Felgueroso","direccion" : "H. Felgueroso","poblacion" : "Gijón","provincia" : "Asturias","latitud" : 43.535061,"longitud" : -5.658123},{"id" : 4,"titulo" : "Castilla","direccion" : "Plaza Castilla","poblacion" : "Gijón","provincia" : "Asturias","latitud" : 43.53794,"longitud" : -5.645951},{"id" : 10,"titulo" : "Montevil","direccion" : "Montevil","poblacion" : "Gijón","provincia" : "Asturias","latitud" : 43.517315,"longitud" : -5.672499},{"id" : 11,"titulo" : "Santa Bárbara","direccion" : "Santa Bárbara","poblacion" : "Gijón","provincia" : "Asturias","latitud" : 43.520957,"longitud" : -5.690707},{"id" : 12,"titulo" : "Unidad Móvil (El Lauredal)","direccion" : "Unidad Móvil","poblacion" : "Gijón","provincia" : "Asturias","latitud" : 0,"longitud" : 0}]}}